[
  {"club": "Leeds United", "stadium": "Elland Road", "city": "Leeds", "league": "Championship", "lat": 53.7772, "lng": -1.5722},
  {"club": "Burnley", "stadium": "Turf Moor", "city": "Burnley", "league": "Championship", "lat": 53.789, "lng": -2.2302},
  {"club": "Sheffield United", "stadium": "Bramall Lane", "city": "Sheffield", "league": "Championship", "lat": 53.3703, "lng": -1.4707},
  {"club": "Sunderland", "stadium": "Stadium of Light", "city": "Sunderland", "league": "Championship", "lat": 54.9146, "lng": -1.3883},
  {"club": "Middlesbrough", "stadium": "Riverside Stadium", "city": "Middlesbrough", "league": "Championship", "lat": 54.5781, "lng": -1.2169},
  {"club": "Norwich City", "stadium": "Carrow Road", "city": "Norwich", "league": "Championship", "lat": 52.622, "lng": 1.3093},
  {"club": "West Bromwich Albion", "stadium": "The Hawthorns", "city": "West Bromwich", "league": "Championship", "lat": 52.509, "lng": -1.9642},
  {"club": "Coventry City", "stadium": "Coventry Building Society Arena", "city": "Coventry", "league": "Championship", "lat": 52.4481, "lng": -1.4954},
  {"club": "Bristol City", "stadium": "Ashton Gate", "city": "Bristol", "league": "Championship", "lat": 51.44, "lng": -2.6203},
  {"club": "Watford", "stadium": "Vicarage Road", "city": "Watford", "league": "Championship", "lat": 51.6498, "lng": -0.4015},
  {"club": "Hull City", "stadium": "MKM Stadium", "city": "Hull", "league": "Championship", "lat": 53.746, "lng": -0.3678},
  {"club": "Millwall", "stadium": "The Den", "city": "London", "league": "Championship", "lat": 51.486, "lng": -0.0506},
  {"club": "Preston North End", "stadium": "Deepdale", "city": "Preston", "league": "Championship", "lat": 53.772, "lng": -2.6885},
  {"club": "Queens Park Rangers", "stadium": "Loftus Road", "city": "London", "league": "Championship", "lat": 51.5093, "lng": -0.2321},
  {"club": "Stoke City", "stadium": "bet365 Stadium", "city": "Stoke-on-Trent", "league": "Championship", "lat": 52.9883, "lng": -2.1756},
  {"club": "Swansea City", "stadium": "Swansea.com Stadium", "city": "Swansea", "league": "Championship", "lat": 51.6428, "lng": -3.9347},
  {"club": "Sheffield Wednesday", "stadium": "Hillsborough", "city": "Sheffield", "league": "Championship", "lat": 53.4115, "lng": -1.5006},
  {"club": "Plymouth Argyle", "stadium": "Home Park", "city": "Plymouth", "league": "Championship", "lat": 50.3881, "lng": -4.1508},
  {"club": "Luton Town", "stadium": "Kenilworth Road", "city": "Luton", "league": "Championship", "lat": 51.8842, "lng": -0.4316},
  {"club": "Cardiff City", "stadium": "Cardiff City Stadium", "city": "Cardiff", "league": "Championship", "lat": 51.4729, "lng": -3.203},
  {"club": "Derby County", "stadium": "Pride Park", "city": "Derby", "league": "Championship", "lat": 52.9142, "lng": -1.4478},
  {"club": "Portsmouth", "stadium": "Fratton Park", "city": "Portsmouth", "league": "Championship", "lat": 50.7964, "lng": -1.0642},
  {"club": "Oxford United", "stadium": "Kassam Stadium", "city": "Oxford", "league": "Championship", "lat": 51.7167, "lng": -1.2079},
  {"club": "Blackburn Rovers", "stadium": "Ewood Park", "city": "Blackburn", "league": "Championship", "lat": 53.7285, "lng": -2.489},

  {"club": "Birmingham City", "stadium": "St Andrew's", "city": "Birmingham", "league": "League One", "lat": 52.4756, "lng": -1.8687},
  {"club": "Wrexham", "stadium": "Racecourse Ground", "city": "Wrexham", "league": "League One", "lat": 53.0517, "lng": -3.0036},
  {"club": "Barnsley", "stadium": "Oakwell", "city": "Barnsley", "league": "League One", "lat": 53.5522, "lng": -1.4678},
  {"club": "Stockport County", "stadium": "Edgeley Park", "city": "Stockport", "league": "League One", "lat": 53.3996, "lng": -2.1664},
  {"club": "Huddersfield Town", "stadium": "John Smith's Stadium", "city": "Huddersfield", "league": "League One", "lat": 53.6542, "lng": -1.7683},
  {"club": "Bolton Wanderers", "stadium": "Toughsheet Community Stadium", "city": "Horwich", "league": "League One", "lat": 53.5805, "lng": -2.5356},
  {"club": "AFC Wimbledon", "stadium": "Plough Lane", "city": "London", "league": "League One", "lat": 51.4281, "lng": -0.1906},
  {"club": "Blackpool", "stadium": "Bloomfield Road", "city": "Blackpool", "league": "League One", "lat": 53.8044, "lng": -3.0489},
  {"club": "Stevenage", "stadium": "Lamex Stadium", "city": "Stevenage", "league": "League One", "lat": 51.8897, "lng": -0.1936},
  {"club": "Leyton Orient", "stadium": "Brisbane Road", "city": "London", "league": "League One", "lat": 51.5603, "lng": -0.0126},
  {"club": "Northampton Town", "stadium": "Sixfields", "city": "Northampton", "league": "League One", "lat": 52.2353, "lng": -0.9335},
  {"club": "Exeter City", "stadium": "St James Park", "city": "Exeter", "league": "League One", "lat": 50.7303, "lng": -3.5214},
  {"club": "Reading", "stadium": "Select Car Leasing Stadium", "city": "Reading", "league": "League One", "lat": 51.422, "lng": -0.9828},
  {"club": "Lincoln City", "stadium": "LNER Stadium", "city": "Lincoln", "league": "League One", "lat": 53.2183, "lng": -0.5408},
  {"club": "Burton Albion", "stadium": "Pirelli Stadium", "city": "Burton upon Trent", "league": "League One", "lat": 52.8219, "lng": -1.6269},
  {"club": "Mansfield Town", "stadium": "Field Mill", "city": "Mansfield", "league": "League One", "lat": 53.1381, "lng": -1.2003},
  {"club": "Rotherham United", "stadium": "AESSEAL New York Stadium", "city": "Rotherham", "league": "League One", "lat": 53.4264, "lng": -1.3625},
  {"club": "Wycombe Wanderers", "stadium": "Adams Park", "city": "High Wycombe", "league": "League One", "lat": 51.6306, "lng": -0.8003},
  {"club": "Peterborough United", "stadium": "Weston Homes Stadium", "city": "Peterborough", "league": "League One", "lat": 52.5647, "lng": -0.2403},
  {"club": "Bristol Rovers", "stadium": "Memorial Stadium", "city": "Bristol", "league": "League One", "lat": 51.4861, "lng": -2.5833},
  {"club": "Cambridge United", "stadium": "Abbey Stadium", "city": "Cambridge", "league": "League One", "lat": 52.2122, "lng": 0.1542},
  {"club": "Shrewsbury Town", "stadium": "New Meadow", "city": "Shrewsbury", "league": "League One", "lat": 52.6886, "lng": -2.7494},
  {"club": "Crawley Town", "stadium": "Broadfield Stadium", "city": "Crawley", "league": "League One", "lat": 51.0994, "lng": -0.1947},
  {"club": "Port Vale", "stadium": "Vale Park", "city": "Stoke-on-Trent", "league": "League One", "lat": 53.0497, "lng": -2.1926},

  {"club": "Walsall", "stadium": "Bescot Stadium", "city": "Walsall", "league": "League Two", "lat": 52.5653, "lng": -1.9903},
  {"club": "Bradford City", "stadium": "Valley Parade", "city": "Bradford", "league": "League Two", "lat": 53.8042, "lng": -1.7592},
  {"club": "Notts County", "stadium": "Meadow Lane", "city": "Nottingham", "league": "League Two", "lat": 52.94, "lng": -1.1328},
  {"club": "Swindon Town", "stadium": "County Ground", "city": "Swindon", "league": "League Two", "lat": 51.5644, "lng": -1.7708},
  {"club": "Salford City", "stadium": "Peninsula Stadium", "city": "Salford", "league": "League Two", "lat": 53.4875, "lng": -2.2908},
  {"club": "Colchester United", "stadium": "Colchester Community Stadium", "city": "Colchester", "league": "League Two", "lat": 51.9236, "lng": 0.8978},
  {"club": "Tranmere Rovers", "stadium": "Prenton Park", "city": "Birkenhead", "league": "League Two", "lat": 53.3736, "lng": -3.0319},
  {"club": "Chesterfield", "stadium": "SMH Group Stadium", "city": "Chesterfield", "league": "League Two", "lat": 53.2533, "lng": -1.4258},
  {"club": "Bromley", "stadium": "Hayes Lane", "city": "Bromley", "league": "League Two", "lat": 51.39, "lng": 0.0217},
  {"club": "Grimsby Town", "stadium": "Blundell Park", "city": "Cleethorpes", "league": "League Two", "lat": 53.5683, "lng": -0.0464},
  {"club": "Crewe Alexandra", "stadium": "Gresty Road", "city": "Crewe", "league": "League Two", "lat": 53.0881, "lng": -2.4369},
  {"club": "Newport County", "stadium": "Rodney Parade", "city": "Newport", "league": "League Two", "lat": 51.5889, "lng": -2.9883},
  {"club": "Cheltenham Town", "stadium": "Whaddon Road", "city": "Cheltenham", "league": "League Two", "lat": 51.9064, "lng": -2.0603},
  {"club": "Gillingham", "stadium": "Priestfield Stadium", "city": "Gillingham", "league": "League Two", "lat": 51.3847, "lng": 0.5603},
  {"club": "Barrow", "stadium": "Holker Street", "city": "Barrow-in-Furness", "league": "League Two", "lat": 54.1231, "lng": -3.2356},
  {"club": "Harrogate Town", "stadium": "EnviroVent Stadium", "city": "Harrogate", "league": "League Two", "lat": 53.9919, "lng": -1.5414},
  {"club": "Accrington Stanley", "stadium": "Wham Stadium", "city": "Accrington", "league": "League Two", "lat": 53.765, "lng": -2.3708},
  {"club": "Fleetwood Town", "stadium": "Highbury Stadium", "city": "Fleetwood", "league": "League Two", "lat": 53.9169, "lng": -3.0242},
  {"club": "Barnet", "stadium": "The Hive Stadium", "city": "London", "league": "League Two", "lat": 51.6028, "lng": -0.2917},
  {"club": "Oldham Athletic", "stadium": "Boundary Park", "city": "Oldham", "league": "League Two", "lat": 53.5553, "lng": -2.1283},
  {"club": "Carlisle United", "stadium": "Brunton Park", "city": "Carlisle", "league": "League Two", "lat": 54.8953, "lng": -2.9139},
  {"club": "Morecambe", "stadium": "Mazuma Mobile Stadium", "city": "Morecambe", "league": "League Two", "lat": 54.0614, "lng": -2.8678},
  {"club": "MK Dons", "stadium": "Stadium MK", "city": "Milton Keynes", "league": "League Two", "lat": 52.0097, "lng": -0.7333},

  {"club": "Forest Green Rovers", "stadium": "The New Lawn", "city": "Nailsworth", "league": "National League", "lat": 51.6989, "lng": -2.2378},
  {"club": "Yeovil Town", "stadium": "Huish Park", "city": "Yeovil", "league": "National League", "lat": 50.9503, "lng": -2.6731},
  {"club": "Southend United", "stadium": "Roots Hall", "city": "Southend-on-Sea", "league": "National League", "lat": 51.5494, "lng": 0.7017},
  {"club": "FC Halifax Town", "stadium": "The Shay", "city": "Halifax", "league": "National League", "lat": 53.7161, "lng": -1.8597},
  {"club": "Gateshead", "stadium": "Gateshead International Stadium", "city": "Gateshead", "league": "National League", "lat": 54.9606, "lng": -1.6036},
  {"club": "Aldershot Town", "stadium": "EBB Stadium", "city": "Aldershot", "league": "National League", "lat": 51.2483, "lng": -0.7542},
  {"club": "Solihull Moors", "stadium": "ARMCO Arena", "city": "Solihull", "league": "National League", "lat": 52.4386, "lng": -1.7569},
  {"club": "Rochdale", "stadium": "Crown Oil Arena", "city": "Rochdale", "league": "National League", "lat": 53.6203, "lng": -2.1819},
  {"club": "Braintree Town", "stadium": "Cressing Road", "city": "Braintree", "league": "National League", "lat": 51.8761, "lng": 0.5722},
  {"club": "Wealdstone", "stadium": "Grosvenor Vale", "city": "Ruislip", "league": "National League", "lat": 51.5694, "lng": -0.4167},
  {"club": "Truro City", "stadium": "Truro City Stadium", "city": "Truro", "league": "National League", "lat": 50.2597, "lng": -5.0653},
  {"club": "Tamworth", "stadium": "The Lamb Ground", "city": "Tamworth", "league": "National League", "lat": 52.6281, "lng": -1.6897},
  {"club": "Scunthorpe United", "stadium": "Glanford Park", "city": "Scunthorpe", "league": "National League", "lat": 53.5869, "lng": -0.6953},
  {"club": "Eastleigh", "stadium": "Silverlake Stadium", "city": "Eastleigh", "league": "National League", "lat": 50.9528, "lng": -1.3714},
  {"club": "Boston United", "stadium": "Jakemans Community Stadium", "city": "Boston", "league": "National League", "lat": 52.9561, "lng": -0.0281},
  {"club": "York City", "stadium": "LNER Community Stadium", "city": "York", "league": "National League", "lat": 53.9847, "lng": -1.0528},
  {"club": "Sutton United", "stadium": "Gander Green Lane", "city": "Sutton", "league": "National League", "lat": 51.3669, "lng": -0.2056},
  {"club": "Woking", "stadium": "Laithwaite Community Stadium", "city": "Woking", "league": "National League", "lat": 51.3069, "lng": -0.5583},
  {"club": "Altrincham", "stadium": "J Davidson Stadium", "city": "Altrincham", "league": "National League", "lat": 53.3836, "lng": -2.3319},
  {"club": "Hartlepool United", "stadium": "Suit Direct Stadium", "city": "Hartlepool", "league": "National League", "lat": 54.6892, "lng": -1.2128},
  {"club": "Dagenham & Redbridge", "stadium": "Victoria Road", "city": "Dagenham", "league": "National League", "lat": 51.5478, "lng": 0.1597},
  {"club": "Brackley Town", "stadium": "St James Park", "city": "Brackley", "league": "National League", "lat": 52.0247, "lng": -1.1442},

  {"club": "South Shields", "stadium": "1st Cloud Arena", "city": "South Shields", "league": "National League North", "lat": 54.9647, "lng": -1.4419},
  {"club": "Scarborough Athletic", "stadium": "Flamingo Land Stadium", "city": "Scarborough", "league": "National League North", "lat": 54.2694, "lng": -0.4133},
  {"club": "King's Lynn Town", "stadium": "The Walks", "city": "King's Lynn", "league": "National League North", "lat": 52.7519, "lng": 0.4036},
  {"club": "Oxford City", "stadium": "Court Place Farm", "city": "Oxford", "league": "National League North", "lat": 51.7736, "lng": -1.2278},
  {"club": "Chester", "stadium": "Deva Stadium", "city": "Chester", "league": "National League North", "lat": 53.1892, "lng": -2.9239},
  {"club": "Kidderminster Harriers", "stadium": "Aggborough", "city": "Kidderminster", "league": "National League North", "lat": 52.3803, "lng": -2.2331},
  {"club": "Darlington", "stadium": "Blackwell Meadows", "city": "Darlington", "league": "National League North", "lat": 54.5086, "lng": -1.5642},
  {"club": "Alfreton Town", "stadium": "Impact Arena", "city": "Alfreton", "league": "National League North", "lat": 53.0947, "lng": -1.3814},
  {"club": "Southport", "stadium": "Haig Avenue", "city": "Southport", "league": "National League North", "lat": 53.6383, "lng": -2.9789},
  {"club": "Curzon Ashton", "stadium": "Tameside Stadium", "city": "Ashton-under-Lyne", "league": "National League North", "lat": 53.4947, "lng": -2.0989},
  {"club": "Bedford Town", "stadium": "The Eyrie", "city": "Bedford", "league": "National League North", "lat": 52.1289, "lng": -0.4669},
  {"club": "Hereford", "stadium": "Edgar Street", "city": "Hereford", "league": "National League North", "lat": 52.0603, "lng": -2.7178},
  {"club": "Chorley", "stadium": "Victory Park", "city": "Chorley", "league": "National League North", "lat": 53.6486, "lng": -2.6292},
  {"club": "Radcliffe", "stadium": "Neptune Energy Stadium", "city": "Radcliffe", "league": "National League North", "lat": 53.5619, "lng": -2.3236},
  {"club": "Merthyr Town", "stadium": "Penydarren Park", "city": "Merthyr Tydfil", "league": "National League North", "lat": 51.7519, "lng": -3.3778},
  {"club": "Worksop Town", "stadium": "Sandy Lane", "city": "Worksop", "league": "National League North", "lat": 53.3019, "lng": -1.1242},
  {"club": "Macclesfield", "stadium": "Leasing.com Stadium", "city": "Macclesfield", "league": "National League North", "lat": 53.2428, "lng": -2.1278},
  {"club": "Peterborough Sports", "stadium": "Lincoln Road", "city": "Peterborough", "league": "National League North", "lat": 52.5697, "lng": -0.2406},
  {"club": "Buxton", "stadium": "The Silverlands", "city": "Buxton", "league": "National League North", "lat": 53.2592, "lng": -1.9064},
  {"club": "AFC Fylde", "stadium": "Mill Farm", "city": "Wesham", "league": "National League North", "lat": 53.7953, "lng": -2.8847},
  {"club": "Leamington", "stadium": "Phillips 66 Community Stadium", "city": "Leamington Spa", "league": "National League North", "lat": 52.2442, "lng": -1.5047},
  {"club": "Marine", "stadium": "Marine Travel Arena", "city": "Crosby", "league": "National League North", "lat": 53.4856, "lng": -3.0336},

  {"club": "Hemel Hempstead Town", "stadium": "Vauxhall Road", "city": "Hemel Hempstead", "league": "National League South", "lat": 51.7528, "lng": -0.4722},
  {"club": "Weston-super-Mare", "stadium": "Woodspring Stadium", "city": "Weston-super-Mare", "league": "National League South", "lat": 51.3297, "lng": -2.9561},
  {"club": "Torquay United", "stadium": "Plainmoor", "city": "Torquay", "league": "National League South", "lat": 50.4761, "lng": -3.5242},
  {"club": "Bath City", "stadium": "Twerton Park", "city": "Bath", "league": "National League South", "lat": 51.3789, "lng": -2.3953},
  {"club": "Worthing", "stadium": "Woodside Road", "city": "Worthing", "league": "National League South", "lat": 50.8194, "lng": -0.3833},
  {"club": "Tonbridge Angels", "stadium": "Longmead Stadium", "city": "Tonbridge", "league": "National League South", "lat": 51.2119, "lng": 0.2936},
  {"club": "Dorking Wanderers", "stadium": "Meadowbank", "city": "Dorking", "league": "National League South", "lat": 51.2347, "lng": -0.3319},
  {"club": "Chesham United", "stadium": "The Meadow", "city": "Chesham", "league": "National League South", "lat": 51.6997, "lng": -0.6128},
  {"club": "Hampton & Richmond Borough", "stadium": "Beveree Stadium", "city": "Hampton", "league": "National League South", "lat": 51.4156, "lng": -0.3636},
  {"club": "Maidstone United", "stadium": "Gallagher Stadium", "city": "Maidstone", "league": "National League South", "lat": 51.2797, "lng": 0.5169},
  {"club": "Ebbsfleet United", "stadium": "Stonebridge Road", "city": "Northfleet", "league": "National League South", "lat": 51.4489, "lng": 0.3228},
  {"club": "Dover Athletic", "stadium": "Crabble Athletic Ground", "city": "Dover", "league": "National League South", "lat": 51.1378, "lng": 1.2847},
  {"club": "Slough Town", "stadium": "Arbour Park", "city": "Slough", "league": "National League South", "lat": 51.5194, "lng": -0.5889},
  {"club": "Chelmsford City", "stadium": "Melbourne Community Stadium", "city": "Chelmsford", "league": "National League South", "lat": 51.7369, "lng": 0.4889},
  {"club": "Eastbourne Borough", "stadium": "Priory Lane", "city": "Eastbourne", "league": "National League South", "lat": 50.8042, "lng": 0.3203},
  {"club": "Farnborough", "stadium": "Cherrywood Road", "city": "Farnborough", "league": "National League South", "lat": 51.3103, "lng": -0.7583},
  {"club": "Chippenham Town", "stadium": "Hardenhuish Park", "city": "Chippenham", "league": "National League South", "lat": 51.4656, "lng": -2.1289},
  {"club": "Salisbury", "stadium": "Raymond McEnhill Stadium", "city": "Salisbury", "league": "National League South", "lat": 51.0689, "lng": -1.7931},
  {"club": "Horsham", "stadium": "The Camping World Community Stadium", "city": "Horsham", "league": "National League South", "lat": 51.0628, "lng": -0.3256},
  {"club": "AFC Totton", "stadium": "Snows Stadium", "city": "Totton", "league": "National League South", "lat": 50.9189, "lng": -1.4819},
  {"club": "Havant & Waterlooville", "stadium": "Westleigh Park", "city": "Havant", "league": "National League South", "lat": 50.8678, "lng": -0.9728},
  {"club": "St Albans City", "stadium": "Clarence Park", "city": "St Albans", "league": "National League South", "lat": 51.7536, "lng": -0.3256},

  {"club": "Celtic", "stadium": "Celtic Park", "city": "Glasgow", "league": "Scottish Prem", "lat": 55.8497, "lng": -4.2056},
  {"club": "Rangers", "stadium": "Ibrox Stadium", "city": "Glasgow", "league": "Scottish Prem", "lat": 55.8532, "lng": -4.3093},
  {"club": "Aberdeen", "stadium": "Pittodrie Stadium", "city": "Aberdeen", "league": "Scottish Prem", "lat": 57.1592, "lng": -2.0889},
  {"club": "Hearts", "stadium": "Tynecastle Park", "city": "Edinburgh", "league": "Scottish Prem", "lat": 55.9392, "lng": -3.2328},
  {"club": "Hibernian", "stadium": "Easter Road", "city": "Edinburgh", "league": "Scottish Prem", "lat": 55.9617, "lng": -3.1653},
  {"club": "Dundee United", "stadium": "Tannadice Park", "city": "Dundee", "league": "Scottish Prem", "lat": 56.4747, "lng": -2.9683},
  {"club": "Dundee", "stadium": "Dens Park", "city": "Dundee", "league": "Scottish Prem", "lat": 56.4622, "lng": -2.9703},
  {"club": "Motherwell", "stadium": "Fir Park", "city": "Motherwell", "league": "Scottish Prem", "lat": 55.7797, "lng": -3.9803},
  {"club": "St Mirren", "stadium": "The SMISA Stadium", "city": "Paisley", "league": "Scottish Prem", "lat": 55.8503, "lng": -4.4436},
  {"club": "Kilmarnock", "stadium": "Rugby Park", "city": "Kilmarnock", "league": "Scottish Prem", "lat": 55.6047, "lng": -4.5083},
  {"club": "Ross County", "stadium": "Global Energy Stadium", "city": "Dingwall", "league": "Scottish Prem", "lat": 57.5953, "lng": -4.4189},
  {"club": "St Johnstone", "stadium": "McDiarmid Park", "city": "Perth", "league": "Scottish Prem", "lat": 56.4097, "lng": -3.4769},

  {"club": "Livingston", "stadium": "Home of the Set-Flex Arena", "city": "Livingston", "league": "Scottish Champ", "lat": 55.8862, "lng": -3.5228},
  {"club": "Partick Thistle", "stadium": "Wyre Stadium at Firhill", "city": "Glasgow", "league": "Scottish Champ", "lat": 55.8817, "lng": -4.2694},
  {"club": "Raith Rovers", "stadium": "Stark's Park", "city": "Kirkcaldy", "league": "Scottish Champ", "lat": 56.1103, "lng": -3.1672},
  {"club": "Ayr United", "stadium": "Somerset Park", "city": "Ayr", "league": "Scottish Champ", "lat": 55.4786, "lng": -4.6169},
  {"club": "Dunfermline Athletic", "stadium": "KDM Group East End Park", "city": "Dunfermline", "league": "Scottish Champ", "lat": 56.0753, "lng": -3.4419},
  {"club": "Greenock Morton", "stadium": "C&G Systems Stadium", "city": "Greenock", "league": "Scottish Champ", "lat": 55.9422, "lng": -4.7228},
  {"club": "Queen's Park", "stadium": "Lesser Hampden", "city": "Glasgow", "league": "Scottish Champ", "lat": 55.8186, "lng": -4.2528},
  {"club": "Hamilton Academical", "stadium": "ZLX Stadium", "city": "Hamilton", "league": "Scottish Champ", "lat": 55.7822, "lng": -4.0389},
  {"club": "Arbroath", "stadium": "Gayfield Park", "city": "Arbroath", "league": "Scottish Champ", "lat": 56.5522, "lng": -2.5917},
  {"club": "Airdrieonians", "stadium": "Excelsior Stadium", "city": "Airdrie", "league": "Scottish Champ", "lat": 55.8661, "lng": -3.9628}
]
